---
transforms: 
  - 
    header: 
      seq: 0
      stamp: 
        secs: 0
        nsecs:         0
      frame_id: ''
    child_frame_id: "tag_1"
    transform: 
      translation: 
        x: 0.369266623699
        y: -0.185483085662
        z: 0.990705798676
      rotation: 
        x: 0.980269994247
        y: -0.0732542721459
        z: 0.0516251388737
        w: 0.176180007459
---
transforms: 
  - 
    header: 
      seq: 0
      stamp: 
        secs: 0
        nsecs:         0
      frame_id: ''
    child_frame_id: "tag_1"
    transform: 
      translation: 
        x: 0.369399012309
        y: -0.185531545248
        z: 0.99102360293
      rotation: 
        x: 0.980388350458
        y: -0.0729862062542
        z: 0.0509553296823
        w: 0.175827331095
---
transforms: 
  - 
    header: 
      seq: 0
      stamp: 
        secs: 0
        nsecs:         0
      frame_id: ''
    child_frame_id: "tag_1"
    transform: 
      translation: 
        x: 0.369655191472
        y: -0.185628414082
        z: 0.99174831327
      rotation: 
        x: 0.980467694837
        y: -0.0734567035496
        z: 0.0510015981676
        w: 0.175174339073
---
transforms: 
  - 
    header: 
      seq: 0
      stamp: 
        secs: 0
        nsecs:         0
      frame_id: ''
    child_frame_id: "tag_1"
    transform: 
      translation: 
        x: 0.369373577291
        y: -0.18552556724
        z: 0.990932549572
      rotation: 
        x: 0.980390340502
        y: -0.0733803500855
        z: 0.051647987472
        w: 0.175449679001
---
transforms: 
  - 
    header: 
      seq: 0
      stamp: 
        secs: 0
        nsecs:         0
      frame_id: ''
    child_frame_id: "tag_1"
    transform: 
      translation: 
        x: 0.369500904032
        y: -0.185582905273
        z: 0.991348055989
      rotation: 
        x: 0.980424958462
        y: -0.0734648931697
        z: 0.051410653818
        w: 0.17529048739
---
transforms: 
  - 
    header: 
      seq: 0
      stamp: 
        secs: 0
        nsecs:         0
      frame_id: ''
    child_frame_id: "tag_1"
    transform: 
      translation: 
        x: 0.369388294185
        y: -0.185536264451
        z: 0.991036612838
      rotation: 
        x: 0.980361123326
        y: -0.0733972512466
        z: 0.0514492733622
        w: 0.175664121697
---
transforms: 
  - 
    header: 
      seq: 0
      stamp: 
        secs: 0
        nsecs:         0
      frame_id: ''
    child_frame_id: "tag_1"
    transform: 
      translation: 
        x: 0.369256002206
        y: -0.185465647169
        z: 0.990678891897
      rotation: 
        x: 0.980346374906
        y: -0.0731733418112
        z: 0.0518610558319
        w: 0.175718747276
---
transforms: 
  - 
    header: 
      seq: 0
      stamp: 
        secs: 0
        nsecs:         0
      frame_id: ''
    child_frame_id: "tag_1"
    transform: 
      translation: 
        x: 0.36938690889
        y: -0.185518903432
        z: 0.991053358724
      rotation: 
        x: 0.98037967712
        y: -0.0732920144564
        z: 0.0512600160477
        w: 0.175659841913
---
transforms: 
  - 
    header: 
      seq: 0
      stamp: 
        secs: 0
        nsecs:         0
      frame_id: ''
    child_frame_id: "tag_1"
    transform: 
      translation: 
        x: 0.36937338009
        y: -0.18554285412
        z: 0.990957719746
      rotation: 
        x: 0.980361520551
        y: -0.073171389451
        z: 0.0518127859844
        w: 0.175649286922
---
transforms: 
  - 
    header: 
      seq: 0
      stamp: 
        secs: 0
        nsecs:         0
      frame_id: ''
    child_frame_id: "tag_1"
    transform: 
      translation: 
        x: 0.369679391964
        y: -0.185672331762
        z: 0.991823595724
      rotation: 
        x: 0.980446853768
        y: -0.073191080021
        z: 0.0514590718659
        w: 0.17526835614
---
transforms: 
  - 
    header: 
      seq: 0
      stamp: 
        secs: 0
        nsecs:         0
      frame_id: ''
    child_frame_id: "tag_1"
    transform: 
      translation: 
        x: 0.369143278941
        y: -0.185414640389
        z: 0.990347804707
      rotation: 
        x: 0.980191565157
        y: -0.073061832873
        z: 0.0517009401387
        w: 0.176673362339
---
transforms: 
  - 
    header: 
      seq: 0
      stamp: 
        secs: 0
        nsecs:         0
      frame_id: ''
    child_frame_id: "tag_1"
    transform: 
      translation: 
        x: 0.369256259681
        y: -0.185476549345
        z: 0.990735515571
      rotation: 
        x: 0.980289322525
        y: -0.0731878499639
        z: 0.0516341590699
        w: 0.176097405939
---
transforms: 
  - 
    header: 
      seq: 0
      stamp: 
        secs: 0
        nsecs:         0
      frame_id: ''
    child_frame_id: "tag_1"
    transform: 
      translation: 
        x: 0.368947989021
        y: -0.185289694791
        z: 0.989859661936
      rotation: 
        x: 0.980158066738
        y: -0.0730487474045
        z: 0.0520269131925
        w: 0.176768902851

