transforms: 
  - 
    header: 
      seq: 0
      stamp: 
        secs: 0
        nsecs:         0
      frame_id: ''
    child_frame_id: "tag_1"
    transform: 
      translation: 
        x: -0.209766124491
        y: -0.173069004329
        z: 0.806657199252
      rotation: 
        x: 0.973542615952
        y: 0.00136620528543
        z: 0.10761460748
        w: 0.201573819395
---
transforms: 
  - 
    header: 
      seq: 0
      stamp: 
        secs: 0
        nsecs:         0
      frame_id: ''
    child_frame_id: "tag_1"
    transform: 
      translation: 
        x: -0.209759399617
        y: -0.173071279103
        z: 0.806616597214
      rotation: 
        x: 0.973308385838
        y: 0.000887505555188
        z: 0.108627452406
        w: 0.20216348576
---
transforms: 
  - 
    header: 
      seq: 0
      stamp: 
        secs: 0
        nsecs:         0
      frame_id: ''
    child_frame_id: "tag_1"
    transform: 
      translation: 
        x: -0.209789699821
        y: -0.173093324365
        z: 0.806762667433
      rotation: 
        x: 0.973363791893
        y: 0.000987772942329
        z: 0.109081936122
        w: 0.201650896718
---
transforms: 
  - 
    header: 
      seq: 0
      stamp: 
        secs: 0
        nsecs:         0
      frame_id: ''
    child_frame_id: "tag_1"
    transform: 
      translation: 
        x: -0.209684426222
        y: -0.172994271044
        z: 0.806313238432
      rotation: 
        x: 0.973340712933
        y: 0.00129686442631
        z: 0.108349344621
        w: 0.202154876789
---
transforms: 
  - 
    header: 
      seq: 0
      stamp: 
        secs: 0
        nsecs:         0
      frame_id: ''
    child_frame_id: "tag_1"
    transform: 
      translation: 
        x: -0.209755669339
        y: -0.173075924642
        z: 0.806682324481
      rotation: 
        x: 0.973380797131
        y: 0.00101094714015
        z: 0.108431820058
        w: 0.201919147587
---
transforms: 
  - 
    header: 
      seq: 0
      stamp: 
        secs: 0
        nsecs:         0
      frame_id: ''
    child_frame_id: "tag_1"
    transform: 
      translation: 
        x: -0.209721402007
        y: -0.173016964261
        z: 0.806427698757
      rotation: 
        x: 0.973356575903
        y: 0.00130802769998
        z: 0.108227765508
        w: 0.202143552909
---
transforms: 
  - 
    header: 
      seq: 0
      stamp: 
        secs: 0
        nsecs:         0
      frame_id: ''
    child_frame_id: "tag_1"
    transform: 
      translation: 
        x: -0.209778693148
        y: -0.173082982898
        z: 0.806660298358
      rotation: 
        x: 0.973302083934
        y: 0.00132310892953
        z: 0.109138723348
        w: 0.201915927697
---
transforms: 
  - 
    header: 
      seq: 0
      stamp: 
        secs: 0
        nsecs:         0
      frame_id: ''
    child_frame_id: "tag_1"
    transform: 
      translation: 
        x: -0.209775665107
        y: -0.173069263471
        z: 0.80667702208
      rotation: 
        x: 0.973453103738
        y: 0.00103506466216
        z: 0.107913564921
        w: 0.20184807646
---
transforms: 
  - 
    header: 
      seq: 0
      stamp: 
        secs: 0
        nsecs:         0
      frame_id: ''
    child_frame_id: "tag_1"
    transform: 
      translation: 
        x: -0.209756003893
        y: -0.1730829913
        z: 0.80664231175
      rotation: 
        x: 0.97334732301
        y: 0.0010169849017
        z: 0.108821711523
        w: 0.201870725052
---
transforms: 
  - 
    header: 
      seq: 0
      stamp: 
        secs: 0
        nsecs:         0
      frame_id: ''
    child_frame_id: "tag_1"
    transform: 
      translation: 
        x: -0.209735296308
        y: -0.173045094064
        z: 0.80652161281
      rotation: 
        x: 0.973353197105
        y: 0.000935946910947
        z: 0.108188677392
        w: 0.202182807809
---
transforms: 
  - 
    header: 
      seq: 0
      stamp: 
        secs: 0
        nsecs:         0
      frame_id: ''
    child_frame_id: "tag_1"
    transform: 
      translation: 
        x: -0.209719277819
        y: -0.173013517069
        z: 0.806490964546
      rotation: 
        x: 0.973259318372
        y: 0.000997064440446
        z: 0.108650527888
        w: 0.202386679042
---
transforms: 
  - 
    header: 
      seq: 0
      stamp: 
        secs: 0
        nsecs:         0
      frame_id: ''
    child_frame_id: "tag_1"
    transform: 
      translation: 
        x: -0.20972601159
        y: -0.173024814727
        z: 0.806501428128
      rotation: 
        x: 0.97330372075
        y: 0.000848025734563
        z: 0.108841254416
        w: 0.202071099775
---
transforms: 
  - 
    header: 
      seq: 0
      stamp: 
        secs: 0
        nsecs:         0
      frame_id: ''
    child_frame_id: "tag_1"
    transform: 
      translation: 
        x: -0.209706785741
        y: -0.173022494414
        z: 0.806444224523
      rotation: 
        x: 0.973408433584
        y: 0.00116175480402
        z: 0.107586056965
        w: 0.202237266844
---
transforms: 
  - 
    header: 
      seq: 0
      stamp: 
        secs: 0
        nsecs:         0
      frame_id: ''
    child_frame_id: "tag_1"
    transform: 
      translation: 
        x: -0.209780500364
        y: -0.173066855304
        z: 0.806617159252
      rotation: 
        x: 0.973416019643
        y: 0.00155841890689
        z: 0.108151603257
        w: 0.201896148417

