---
transforms: 
  - 
    header: 
      seq: 0
      stamp: 
        secs: 0
        nsecs:         0
      frame_id: ''
    child_frame_id: "tag_1"
    transform: 
      translation: 
        x: -0.333794238938
        y: -0.125101113475
        z: 0.87510658657
      rotation: 
        x: 0.993172528505
        y: -0.013673564332
        z: 0.0768330814327
        w: 0.0867066309999
---
transforms: 
  - 
    header: 
      seq: 0
      stamp: 
        secs: 0
        nsecs:         0
      frame_id: ''
    child_frame_id: "tag_1"
    transform: 
      translation: 
        x: -0.333588829306
        y: -0.125030317044
        z: 0.87463849954
      rotation: 
        x: 0.992983171649
        y: -0.0144813185467
        z: 0.0770212545584
        w: 0.0885575439024
---
transforms: 
  - 
    header: 
      seq: 0
      stamp: 
        secs: 0
        nsecs:         0
      frame_id: ''
    child_frame_id: "tag_1"
    transform: 
      translation: 
        x: -0.333496808905
        y: -0.125025049875
        z: 0.874313723139
      rotation: 
        x: 0.99316266375
        y: -0.0144335426504
        z: 0.0750939560143
        w: 0.088207108277
---
transforms: 
  - 
    header: 
      seq: 0
      stamp: 
        secs: 0
        nsecs:         0
      frame_id: ''
    child_frame_id: "tag_1"
    transform: 
      translation: 
        x: -0.333151470532
        y: -0.12485677828
        z: 0.87340587209
      rotation: 
        x: 0.993268414192
        y: -0.0140320458732
        z: 0.0730814374623
        w: 0.0887697164346
---
transforms: 
  - 
    header: 
      seq: 0
      stamp: 
        secs: 0
        nsecs:         0
      frame_id: ''
    child_frame_id: "tag_1"
    transform: 
      translation: 
        x: -0.333070414832
        y: -0.124819460369
        z: 0.873199764386
      rotation: 
        x: 0.993191826743
        y: -0.0141546930395
        z: 0.0730138944118
        w: 0.0896583023434
---
transforms: 
  - 
    header: 
      seq: 0
      stamp: 
        secs: 0
        nsecs:         0
      frame_id: ''
    child_frame_id: "tag_1"
    transform: 
      translation: 
        x: -0.3332901157
        y: -0.124962116671
        z: 0.873900304601
      rotation: 
        x: 0.993064606411
        y: -0.0143268228684
        z: 0.0751907291813
        w: 0.0892400352142
---
transforms: 
  - 
    header: 
      seq: 0
      stamp: 
        secs: 0
        nsecs:         0
      frame_id: ''
    child_frame_id: "tag_1"
    transform: 
      translation: 
        x: -0.333751908165
        y: -0.125015644462
        z: 0.875010852374
      rotation: 
        x: 0.993273616462
        y: -0.0140067215242
        z: 0.0755146236901
        w: 0.086653771993
---
transforms: 
  - 
    header: 
      seq: 0
      stamp: 
        secs: 0
        nsecs:         0
      frame_id: ''
    child_frame_id: "tag_1"
    transform: 
      translation: 
        x: -0.333176301497
        y: -0.124931930477
        z: 0.873502944779
      rotation: 
        x: 0.993224104676
        y: -0.0144324192824
        z: 0.0732005423602
        w: 0.0891025463296
---
transforms: 
  - 
    header: 
      seq: 0
      stamp: 
        secs: 0
        nsecs:         0
      frame_id: ''
    child_frame_id: "tag_1"
    transform: 
      translation: 
        x: -0.333493146414
        y: -0.124993185058
        z: 0.87433033273
      rotation: 
        x: 0.993145093805
        y: -0.0142890107367
        z: 0.0755548263244
        w: 0.0880347377015
---
transforms: 
  - 
    header: 
      seq: 0
      stamp: 
        secs: 0
        nsecs:         0
      frame_id: ''
    child_frame_id: "tag_1"
    transform: 
      translation: 
        x: -0.333554366677
        y: -0.12502628734
        z: 0.874571003115
      rotation: 
        x: 0.992941251815
        y: -0.014432264521
        z: 0.0774127032711
        w: 0.088694157403
---
transforms: 
  - 
    header: 
      seq: 0
      stamp: 
        secs: 0
        nsecs:         0
      frame_id: ''
    child_frame_id: "tag_1"
    transform: 
      translation: 
        x: -0.33354005425
        y: -0.12500052664
        z: 0.874593693727
      rotation: 
        x: 0.993036992548
        y: -0.0139750132053
        z: 0.0776472837022
        w: 0.087482168298
---
transforms: 
  - 
    header: 
      seq: 0
      stamp: 
        secs: 0
        nsecs:         0
      frame_id: ''
    child_frame_id: "tag_1"
    transform: 
      translation: 
        x: -0.333291596071
        y: -0.124910172136
        z: 0.873864481448
      rotation: 
        x: 0.993070158417
        y: -0.0147214338037
        z: 0.0756937800252
        w: 0.0886870425406
---
transforms: 
  - 
    header: 
      seq: 0
      stamp: 
        secs: 0
        nsecs:         0
      frame_id: ''
    child_frame_id: "tag_1"
    transform: 
      translation: 
        x: -0.333632631394
        y: -0.125091702913
        z: 0.874785257613
      rotation: 
        x: 0.993026018878
        y: -0.014511048522
        z: 0.0768597547639
        w: 0.0882118665496
---
transforms: 
  - 
    header: 
      seq: 0
      stamp: 
        secs: 0
        nsecs:         0
      frame_id: ''
    child_frame_id: "tag_1"
    transform: 
      translation: 
        x: -0.333457525891
        y: -0.124927587643
        z: 0.874221618636
      rotation: 
        x: 0.993167162437
        y: -0.0139525193658
        z: 0.0754505170882
        w: 0.0879291426758

