---
transforms: 
  - 
    header: 
      seq: 0
      stamp: 
        secs: 1658673648
        nsecs: 338479519
      frame_id: "camera_color_optical_frame"
    child_frame_id: "tag_2"
    transform: 
      translation: 
        x: -0.0822136545395
        y: -0.019198722793
        z: 0.595310444868
      rotation: 
        x: 0.936991277715
        y: 0.0471275466161
        z: 0.339492677862
        w: 0.0676096259024
---
transforms: 
  - 
    header: 
      seq: 0
      stamp: 
        secs: 1658673648
        nsecs: 338479519
      frame_id: "camera_color_optical_frame"
    child_frame_id: "tag_3"
    transform: 
      translation: 
        x: -0.160481369052
        y: 0.0663835179079
        z: 0.498239642378
      rotation: 
        x: 0.931795576845
        y: 0.0437838903282
        z: 0.352944056025
        w: 0.0725979836973
---
transforms: 
  - 
    header: 
      seq: 0
      stamp: 
        secs: 1658673648
        nsecs: 338479519
      frame_id: "camera_color_optical_frame"
    child_frame_id: "tag_0"
    transform: 
      translation: 
        x: -0.122117829317
        y: 0.0239592589329
        z: 0.546461242517
      rotation: 
        x: 0.942389864983
        y: 0.0455282980499
        z: 0.324729734324
        w: 0.0661748902503
---
transforms: 
  - 
    header: 
      seq: 0
      stamp: 
        secs: 1658673648
        nsecs: 338479519
      frame_id: "camera_color_optical_frame"
    child_frame_id: "tag_1"
    transform: 
      translation: 
        x: -0.159098209084
        y: -0.0328014603545
        z: 0.519857105466
      rotation: 
        x: 0.942725580913
        y: 0.0451761716799
        z: 0.319901857665
        w: 0.0830083975692
---
transforms: 
  - 
    header: 
      seq: 0
      stamp: 
        secs: 1658673648
        nsecs: 338479519
      frame_id: "camera_color_optical_frame"
    child_frame_id: "tag_4"
    transform: 
      translation: 
        x: -0.0837441005757
        y: 0.0799465875801
        z: 0.566306212551
      rotation: 
        x: 0.934313033963
        y: 0.0379916390466
        z: 0.342937066391
        w: 0.0894983710778
---
transforms: 
  - 
    header: 
      seq: 0
      stamp: 
        secs: 1658673648
        nsecs: 338479519
      frame_id: "camera_color_optical_frame"
    child_frame_id: "my_bundle"
    transform: 
      translation: 
        x: -0.120374864242
        y: 0.0235963299738
        z: 0.538563199127
      rotation: 
        x: 0.93861954696
        y: 0.0429452031944
        z: 0.333267367917
        w: 0.0779866467373
---
transforms: 
  - 
    header: 
      seq: 0
      stamp: 
        secs: 1658673648
        nsecs: 371836662
      frame_id: "camera_color_optical_frame"
    child_frame_id: "tag_2"
    transform: 
      translation: 
        x: -0.0822031062523
        y: -0.0192214668591
        z: 0.595373702951
      rotation: 
        x: 0.937077181117
        y: 0.0474578404043
        z: 0.339288106979
        w: 0.0672137670177
---
transforms: 
  - 
    header: 
      seq: 0
      stamp: 
        secs: 1658673648
        nsecs: 371836662
      frame_id: "camera_color_optical_frame"
    child_frame_id: "tag_1"
    transform: 
      translation: 
        x: -0.159011585488
        y: -0.0327943502775
        z: 0.519592834565
      rotation: 
        x: 0.942075399259
        y: 0.0451277976743
        z: 0.321743298556
        w: 0.0832987024099
---
transforms: 
  - 
    header: 
      seq: 0
      stamp: 
        secs: 1658673648
        nsecs: 371836662
      frame_id: "camera_color_optical_frame"
    child_frame_id: "tag_0"
    transform: 
      translation: 
        x: -0.122161129055
        y: 0.0239590446927
        z: 0.546630192291
      rotation: 
        x: 0.942322310089
        y: 0.0457789923711
        z: 0.325028632991
        w: 0.065493018727
---
transforms: 
  - 
    header: 
      seq: 0
      stamp: 
        secs: 1658673648
        nsecs: 371836662
      frame_id: "camera_color_optical_frame"
    child_frame_id: "tag_3"
    transform: 
      translation: 
        x: -0.160511657738
        y: 0.0663800225293
        z: 0.498386152486
      rotation: 
        x: 0.93225919892
        y: 0.0430420895225
        z: 0.351682128788
        w: 0.0732109612704
---
transforms: 
  - 
    header: 
      seq: 0
      stamp: 
        secs: 1658673648
        nsecs: 371836662
      frame_id: "camera_color_optical_frame"
    child_frame_id: "tag_4"
    transform: 
      translation: 
        x: -0.0837310490298
        y: 0.0799339044582
        z: 0.566193749933
      rotation: 
        x: 0.9343899386
        y: 0.0376422623421
        z: 0.34301149836
        w: 0.0885528922326
---
transforms: 
  - 
    header: 
      seq: 0
      stamp: 
        secs: 1658673648
        nsecs: 371836662
      frame_id: "camera_color_optical_frame"
    child_frame_id: "my_bundle"
    transform: 
      translation: 
        x: -0.120366235269
        y: 0.0235843400731
        z: 0.538554605079
      rotation: 
        x: 0.938601484905
        y: 0.042939711069
        z: 0.333333321276
        w: 0.0779251607322
---
transforms: 
  - 
    header: 
      seq: 0
      stamp: 
        secs: 1658673648
        nsecs: 405193567
      frame_id: "camera_color_optical_frame"
    child_frame_id: "tag_1"
    transform: 
      translation: 
        x: -0.159038030155
        y: -0.0327968273734
        z: 0.519840913842
      rotation: 
        x: 0.942363278088
        y: 0.0456086492514
        z: 0.321136067903
        w: 0.0821153403227
---
transforms: 
  - 
    header: 
      seq: 0
      stamp: 
        secs: 1658673648
        nsecs: 405193567
      frame_id: "camera_color_optical_frame"
    child_frame_id: "tag_0"
    transform: 
      translation: 
        x: -0.122091658107
        y: 0.0239660450494
        z: 0.546523763493
      rotation: 
        x: 0.942220860845
        y: 0.0463232575333
        z: 0.324708738493
        w: 0.0681046279366
---
transforms: 
  - 
    header: 
      seq: 0
      stamp: 
        secs: 1658673648
        nsecs: 405193567
      frame_id: "camera_color_optical_frame"
    child_frame_id: "tag_3"
    transform: 
      translation: 
        x: -0.160534560644
        y: 0.0664248922691
        z: 0.498494696803
      rotation: 
        x: 0.932242034092
        y: 0.0442035531072
        z: 0.351818187089
        w: 0.0720749540244
---
transforms: 
  - 
    header: 
      seq: 0
      stamp: 
        secs: 1658673648
        nsecs: 405193567
      frame_id: "camera_color_optical_frame"
    child_frame_id: "tag_2"
    transform: 
      translation: 
        x: -0.0821583226065
        y: -0.0191951672664
        z: 0.59529368389
      rotation: 
        x: 0.93711241357
        y: 0.047568652037
        z: 0.339275689667
        w: 0.0667049779088
---
transforms: 
  - 
    header: 
      seq: 0
      stamp: 
        secs: 1658673648
        nsecs: 405193567
      frame_id: "camera_color_optical_frame"
    child_frame_id: "tag_4"
    transform: 
      translation: 
        x: -0.0837223176391
        y: 0.0799736490182
        z: 0.56626052457
      rotation: 
        x: 0.934407863763
        y: 0.0381604897244
        z: 0.342942496833
        w: 0.0884090777494
---
transforms: 
  - 
    header: 
      seq: 0
      stamp: 
        secs: 1658673648
        nsecs: 405193567
      frame_id: "camera_color_optical_frame"
    child_frame_id: "my_bundle"
    transform: 
      translation: 
        x: -0.120330549612
        y: 0.023606532657
        z: 0.538538892185
      rotation: 
        x: 0.93859778309
        y: 0.0431581798047
        z: 0.333352717579
        w: 0.0777659229845
---
transforms: 
  - 
    header: 
      seq: 0
      stamp: 
        secs: 1658673648
        nsecs: 438550472
      frame_id: "camera_color_optical_frame"
    child_frame_id: "tag_3"
    transform: 
      translation: 
        x: -0.160369539772
        y: 0.0664367348136
        z: 0.498258340307
      rotation: 
        x: 0.932522369647
        y: 0.0436721139666
        z: 0.350971661432
        w: 0.0728949205399
---
transforms: 
  - 
    header: 
      seq: 0
      stamp: 
        secs: 1658673648
        nsecs: 438550472
      frame_id: "camera_color_optical_frame"
    child_frame_id: "tag_2"
    transform: 
      translation: 
        x: -0.082215438969
        y: -0.0191582012038
        z: 0.595970979284
      rotation: 
        x: 0.937406859914
        y: 0.0482974686752
        z: 0.338425095617
        w: 0.0663640577652
---
transforms: 
  - 
    header: 
      seq: 0
      stamp: 
        secs: 1658673648
        nsecs: 438550472
      frame_id: "camera_color_optical_frame"
    child_frame_id: "tag_1"
    transform: 
      translation: 
        x: -0.159202279669
        y: -0.0327719087732
        z: 0.520501462589
      rotation: 
        x: 0.943001401318
        y: 0.0455308429623
        z: 0.319555704102
        w: 0.0809904403496
---
transforms: 
  - 
    header: 
      seq: 0
      stamp: 
        secs: 1658673648
        nsecs: 438550472
      frame_id: "camera_color_optical_frame"
    child_frame_id: "tag_0"
    transform: 
      translation: 
        x: -0.122134522888
        y: 0.0240358874059
        z: 0.546894908152
      rotation: 
        x: 0.942498213769
        y: 0.0466290315389
        z: 0.324171502087
        w: 0.066600958664
---
transforms: 
  - 
    header: 
      seq: 0
      stamp: 
        secs: 1658673648
        nsecs: 438550472
      frame_id: "camera_color_optical_frame"
    child_frame_id: "tag_4"
    transform: 
      translation: 
        x: -0.0836061536859
        y: 0.0800074968422
        z: 0.565860666161
      rotation: 
        x: 0.934782553012
        y: 0.037471736722
        z: 0.342778819867
        w: 0.0853236671828
---
transforms: 
  - 
    header: 
      seq: 0
      stamp: 
        secs: 1658673648
        nsecs: 438550472
      frame_id: "camera_color_optical_frame"
    child_frame_id: "my_bundle"
    transform: 
      translation: 
        x: -0.120278659012
        y: 0.0236657359746
        z: 0.53854622594
      rotation: 
        x: 0.938576231529
        y: 0.0430668216093
        z: 0.333389209584
        w: 0.077920096377
---

