
---
transforms: 
  - 
    header: 
      seq: 0
      stamp: 
        secs: 1643198144
        nsecs: 123955965
      frame_id: "camera_color_optical_frame"
    child_frame_id: "tag_1"
    transform: 
      translation: 
        x: 0.197122216504
        y: -0.105819954029
        z: 0.656136498183
      rotation: 
        x: -0.641288373964
        y: 0.694157529475
        z: -0.203615316287
        w: -0.255803339824
---
transforms: 
  - 
    header: 
      seq: 0
      stamp: 
        secs: 1643198144
        nsecs: 190462828
      frame_id: "camera_color_optical_frame"
    child_frame_id: "tag_1"
    transform: 
      translation: 
        x: 0.197024687074
        y: -0.105767458874
        z: 0.655853319628
      rotation: 
        x: -0.641219051097
        y: 0.694174559179
        z: -0.203968017827
        w: -0.255649873076
---
transforms: 
  - 
    header: 
      seq: 0
      stamp: 
        secs: 1643198144
        nsecs: 256968260
      frame_id: "camera_color_optical_frame"
    child_frame_id: "tag_1"
    transform: 
      translation: 
        x: 0.197003485616
        y: -0.10571389484
        z: 0.655722872758
      rotation: 
        x: -0.641144282058
        y: 0.694198142443
        z: -0.204300702017
        w: -0.255507674579
---
transforms: 
  - 
    header: 
      seq: 0
      stamp: 
        secs: 1643198144
        nsecs: 323472023
      frame_id: "camera_color_optical_frame"
    child_frame_id: "tag_1"
    transform: 
      translation: 
        x: 0.196972977193
        y: -0.105714775843
        z: 0.655675450448
      rotation: 
        x: -0.640957501442
        y: 0.694332510758
        z: -0.204474252982
        w: -0.25547235803
---
transforms: 
  - 
    header: 
      seq: 0
      stamp: 
        secs: 1643198144
        nsecs: 389974117
      frame_id: "camera_color_optical_frame"
    child_frame_id: "tag_1"
    transform: 
      translation: 
        x: 0.197069359751
        y: -0.105776455255
        z: 0.655938619665
      rotation: 
        x: -0.641337044598
        y: 0.694106265891
        z: -0.203616910878
        w: -0.255819155814
---
transforms: 
  - 
    header: 
      seq: 0
      stamp: 
        secs: 1643198144
        nsecs: 456474781
      frame_id: "camera_color_optical_frame"
    child_frame_id: "tag_1"
    transform: 
      translation: 
        x: 0.197009898105
        y: -0.105755036875
        z: 0.655753216547
      rotation: 
        x: -0.641196250942
        y: 0.694208129114
        z: -0.20395985441
        w: -0.255622414978
---
transforms: 
  - 
    header: 
      seq: 0
      stamp: 
        secs: 1643198144
        nsecs: 522974014
      frame_id: "camera_color_optical_frame"
    child_frame_id: "tag_1"
    transform: 
      translation: 
        x: 0.196945473152
        y: -0.105696092129
        z: 0.655526022545
      rotation: 
        x: -0.641068812818
        y: 0.694244337062
        z: -0.204792163656
        w: -0.255177874032
---
transforms: 
  - 
    header: 
      seq: 0
      stamp: 
        secs: 1643198144
        nsecs: 589471579
      frame_id: "camera_color_optical_frame"
    child_frame_id: "tag_1"
    transform: 
      translation: 
        x: 0.196913917762
        y: -0.105686358603
        z: 0.655520562682
      rotation: 
        x: -0.640963051822
        y: 0.694284733376
        z: -0.204608506527
        w: -0.255480790387
---
transforms: 
  - 
    header: 
      seq: 0
      stamp: 
        secs: 1643198144
        nsecs: 655967712
      frame_id: "camera_color_optical_frame"
    child_frame_id: "tag_1"
    transform: 
      translation: 
        x: 0.197091803299
        y: -0.105782115769
        z: 0.656013930216
      rotation: 
        x: -0.641244706251
        y: 0.694222881122
        z: -0.20391095183
        w: -0.255499788173
---
transforms: 
  - 
    header: 
      seq: 0
      stamp: 
        secs: 1643198144
        nsecs: 722462177
      frame_id: "camera_color_optical_frame"
    child_frame_id: "tag_1"
    transform: 
      translation: 
        x: 0.197068160226
        y: -0.105793185723
        z: 0.655969122132
      rotation: 
        x: -0.641244156744
        y: 0.694309289502
        z: -0.203624481164
        w: -0.255494838741
---
transforms: 
  - 
    header: 
      seq: 0
      stamp: 
        secs: 1643198144
        nsecs: 788955212
      frame_id: "camera_color_optical_frame"
    child_frame_id: "tag_1"
    transform: 
      translation: 
        x: 0.196922166532
        y: -0.105681249387
        z: 0.655442375227
      rotation: 
        x: -0.641092975872
        y: 0.69424924763
        z: -0.204539733797
        w: -0.255306239154
---
transforms: 
  - 
    header: 
      seq: 0
      stamp: 
        secs: 1643198144
        nsecs: 855446577
      frame_id: "camera_color_optical_frame"
    child_frame_id: "tag_1"
    transform: 
      translation: 
        x: 0.196937019144
        y: -0.105674171324
        z: 0.655506077407
      rotation: 
        x: -0.640998984252
        y: 0.694273837648
        z: -0.204417733586
        w: -0.255572946027
---
transforms: 
  - 
    header: 
      seq: 0
      stamp: 
        secs: 1643198144
        nsecs: 921936512
      frame_id: "camera_color_optical_frame"
    child_frame_id: "tag_1"
    transform: 
      translation: 
        x: 0.196897638504
        y: -0.105679437806
        z: 0.655402217895
      rotation: 
        x: -0.641072613278
        y: 0.694147516748
        z: -0.204599619972
        w: -0.255585846642

