---
transforms: 
  - 
    header: 
      seq: 0
      stamp: 
        secs: 1663064364
        nsecs: 896640301
      frame_id: "camera_color_optical_frame"
    child_frame_id: "my_bundle"
    transform: 
      translation: 
        x: 0.153016295887
        y: 0.1105437743
        z: 0.664109437096
      rotation: 
        x: 0.656821716039
        y: 0.703185102914
        z: 0.158700343463
        w: -0.221201594398
---
transforms: 
  - 
    header: 
      seq: 0
      stamp: 
        secs: 1663064364
        nsecs: 929985523
      frame_id: "camera_color_optical_frame"
    child_frame_id: "tag_1"
    transform: 
      translation: 
        x: 0.20539260825
        y: 0.0723483097334
        z: 0.636333796203
      rotation: 
        x: 0.659164809926
        y: 0.697034614046
        z: 0.179383828319
        w: -0.217866799479
---
transforms: 
  - 
    header: 
      seq: 0
      stamp: 
        secs: 1663064364
        nsecs: 929985523
      frame_id: "camera_color_optical_frame"
    child_frame_id: "tag_4"
    transform: 
      translation: 
        x: 0.101932682404
        y: 0.150146157255
        z: 0.698603267256
      rotation: 
        x: 0.655699232672
        y: 0.703325993882
        z: 0.151995319422
        w: -0.228666756386
---
transforms: 
  - 
    header: 
      seq: 0
      stamp: 
        secs: 1663064364
        nsecs: 929985523
      frame_id: "camera_color_optical_frame"
    child_frame_id: "tag_3"
    transform: 
      translation: 
        x: 0.106131666043
        y: 0.0638346454765
        z: 0.64758395146
      rotation: 
        x: 0.652881078736
        y: 0.700997610969
        z: 0.16480488902
        w: -0.234921252763
---
transforms: 
  - 
    header: 
      seq: 0
      stamp: 
        secs: 1663064364
        nsecs: 929985523
      frame_id: "camera_color_optical_frame"
    child_frame_id: "tag_2"
    transform: 
      translation: 
        x: 0.203115188477
        y: 0.159451977514
        z: 0.694213034261
      rotation: 
        x: 0.66138936448
        y: 0.699568266391
        z: 0.169722141895
        w: -0.210624651363
---
transforms: 
  - 
    header: 
      seq: 0
      stamp: 
        secs: 1663064364
        nsecs: 929985523
      frame_id: "camera_color_optical_frame"
    child_frame_id: "tag_0"
    transform: 
      translation: 
        x: 0.153926140812
        y: 0.111327471605
        z: 0.668579176291
      rotation: 
        x: 0.654360682875
        y: 0.705702033264
        z: 0.147555993708
        w: -0.228087627183
---
transforms: 
  - 
    header: 
      seq: 0
      stamp: 
        secs: 1663064364
        nsecs: 929985523
      frame_id: "camera_color_optical_frame"
    child_frame_id: "my_bundle"
    transform: 
      translation: 
        x: 0.152997144875
        y: 0.110545785211
        z: 0.664087338957
      rotation: 
        x: 0.656789546272
        y: 0.703161435688
        z: 0.158766801253
        w: -0.221324626036
---
^Ctransforms: 
  - 
    header: 
      seq: 0
      stamp: 
        secs: 1663064364
        nsecs: 963330746
      frame_id: "camera_color_optical_frame"
    child_frame_id: "tag_2"
    transform: 
      translation: 
        x: 0.20322170565
        y: 0.159543004161
        z: 0.694532270459
      rotation: 
        x: 0.661070106709
        y: 0.699893008005
        z: 0.169266094198
        w: -0.21091486604
---
transforms: 
  - 
    header: 
      seq: 0
      stamp: 
        secs: 1663064364
        nsecs: 963330746
      frame_id: "camera_color_optical_frame"
    child_frame_id: "tag_0"
    transform: 
      translation: 
        x: 0.153887991745
        y: 0.111311997557
        z: 0.668399592483
      rotation: 
        x: 0.654104225396
        y: 0.705929451613
        z: 0.148068882686
        w: -0.227786912806
---
transforms: 
  - 
    header: 
      seq: 0
      stamp: 
        secs: 1663064364
        nsecs: 963330746
      frame_id: "camera_color_optical_frame"
    child_frame_id: "tag_1"
    transform: 
      translation: 
        x: 0.205385727422
        y: 0.0723563214018
        z: 0.636356401948
      rotation: 
        x: 0.659397264964
        y: 0.696810016435
        z: 0.178878826842
        w: -0.218296617614
---
transforms: 
  - 
    header: 
      seq: 0
      stamp: 
        secs: 1663064364
        nsecs: 963330746
      frame_id: "camera_color_optical_frame"
    child_frame_id: "tag_4"
    transform: 
      translation: 
        x: 0.101958723965
        y: 0.150188011273
        z: 0.698851245285
      rotation: 
        x: 0.655119826719
        y: 0.703959756134
        z: 0.152737146113
        w: -0.227881632828
---
transforms: 
  - 
    header: 
      seq: 0
      stamp: 
        secs: 1663064364
        nsecs: 963330746
      frame_id: "camera_color_optical_frame"
    child_frame_id: "tag_3"
    transform: 
      translation: 
        x: 0.106077293864
        y: 0.0638188524252
        z: 0.647115005541
      rotation: 
        x: 0.653012211342
        y: 0.700589839809
        z: 0.166233455234
        w: -0.234766621469
---
transforms: 
  - 
    header: 
      seq: 0
      stamp: 
        secs: 1663064364
        nsecs: 963330746
      frame_id: "camera_color_optical_frame"
    child_frame_id: "my_bundle"
    transform: 
      translation: 
        x: 0.153008409596
        y: 0.110563225287
        z: 0.664124640873
      rotation: 
        x: 0.656752090301
        y: 0.703176860876
        z: 0.158820846817
        w: -0.221347990348
---

