---
transforms: 
  - 
    header: 
      seq: 0
      stamp: 
        secs: 0
        nsecs:         0
      frame_id: ''
    child_frame_id: "my_bundle"
    transform: 
      translation: 
        x: 0.275276522959
        y: 0.0505610648558
        z: 0.866974162526
      rotation: 
        x: 0.245113420987
        y: 0.906422611018
        z: 0.166329061932
        w: -0.301084878805
---
transforms: 
  - 
    header: 
      seq: 0
      stamp: 
        secs: 0
        nsecs:         0
      frame_id: ''
    child_frame_id: "tag_4"
    transform: 
      translation: 
        x: 0.215988150437
        y: 0.0270657902372
        z: 0.902944794002
      rotation: 
        x: 0.243947371263
        y: 0.905569343084
        z: 0.153402566145
        w: -0.311290053842
---
transforms: 
  - 
    header: 
      seq: 0
      stamp: 
        secs: 0
        nsecs:         0
      frame_id: ''
    child_frame_id: "tag_3"
    transform: 
      translation: 
        x: 0.283997439674
        y: -0.00842624145529
        z: 0.830306580851
      rotation: 
        x: 0.24087416642
        y: 0.905013048494
        z: 0.156419032737
        w: -0.313789904561
---
transforms: 
  - 
    header: 
      seq: 0
      stamp: 
        secs: 0
        nsecs:         0
      frame_id: ''
    child_frame_id: "tag_2"
    transform: 
      translation: 
        x: 0.271260116631
        y: 0.110480355574
        z: 0.918765416538
      rotation: 
        x: 0.25221096868
        y: 0.901162301532
        z: 0.181676991899
        w: -0.302141695551
---
transforms: 
  - 
    header: 
      seq: 0
      stamp: 
        secs: 0
        nsecs:         0
      frame_id: ''
    child_frame_id: "tag_1"
    transform: 
      translation: 
        x: 0.271739296665
        y: 0.0602219986649
        z: 0.67867152687
      rotation: 
        x: 0.248835577414
        y: 0.900614132711
        z: 0.185569505391
        w: -0.304202232147
---
transforms: 
  - 
    header: 
      seq: 0
      stamp: 
        secs: 0
        nsecs:         0
      frame_id: ''
    child_frame_id: "tag_0"
    transform: 
      translation: 
        x: 0.278426704297
        y: 0.0513819572609
        z: 0.8775860289
      rotation: 
        x: 0.241766344749
        y: 0.911460189697
        z: 0.155575300077
        w: -0.294254453067
---
transforms: 
  - 
    header: 
      seq: 0
      stamp: 
        secs: 0
        nsecs:         0
      frame_id: ''
    child_frame_id: "my_bundle"
    transform: 
      translation: 
        x: 0.275313533394
        y: 0.0505717007927
        z: 0.867049111846
      rotation: 
        x: 0.244995425324
        y: 0.906423356293
        z: 0.166383530686
        w: -0.301148570398
---
transforms: 
  - 
    header: 
      seq: 0
      stamp: 
        secs: 0
        nsecs:         0
      frame_id: ''
    child_frame_id: "tag_4"
    transform: 
      translation: 
        x: 0.216041860116
        y: 0.0270610391093
        z: 0.903180717064
      rotation: 
        x: 0.243036299723
        y: 0.905862106141
        z: 0.151580875749
        w: -0.312042368568
---
transforms: 
  - 
    header: 
      seq: 0
      stamp: 
        secs: 0
        nsecs:         0
      frame_id: ''
    child_frame_id: "tag_0"
    transform: 
      translation: 
        x: 0.278040854492
        y: 0.0513377163382
        z: 0.876433678782
      rotation: 
        x: 0.242580573846
        y: 0.91104702956
        z: 0.156489623095
        w: -0.294378961521
---
transforms: 
  - 
    header: 
      seq: 0
      stamp: 
        secs: 0
        nsecs:         0
      frame_id: ''
    child_frame_id: "tag_1"
    transform: 
      translation: 
        x: 0.271308068441
        y: 0.0601566885955
        z: 0.67769511871
      rotation: 
        x: 0.248385434345
        y: 0.899886896144
        z: 0.186311215929
        w: -0.306261948293
---
transforms: 
  - 
    header: 
      seq: 0
      stamp: 
        secs: 0
        nsecs:         0
      frame_id: ''
    child_frame_id: "tag_3"
    transform: 
      translation: 
        x: 0.2840814352
        y: -0.00842594414018
        z: 0.830543311149
      rotation: 
        x: 0.241325326891
        y: 0.905208129626
        z: 0.156681442883
        w: -0.312747908251
---
transforms: 
  - 
    header: 
      seq: 0
      stamp: 
        secs: 0
        nsecs:         0
      frame_id: ''
    child_frame_id: "tag_2"
    transform: 
      translation: 
        x: 0.27115156465
        y: 0.110431752482
        z: 0.918377395083
      rotation: 
        x: 0.251963946123
        y: 0.901194448685
        z: 0.182148603462
        w: -0.301967915133
---
transforms: 
  - 
    header: 
      seq: 0
      stamp: 
        secs: 0
        nsecs:         0
      frame_id: ''
    child_frame_id: "my_bundle"
    transform: 
      translation: 
        x: 0.275300982517
        y: 0.0505788591923
        z: 0.867052541984
      rotation: 
        x: 0.244888955381
        y: 0.90639193613
        z: 0.166241779204
        w: -0.301407910476
---

