---
transforms: 
  - 
    header: 
      seq: 0
      stamp: 
        secs: 0
        nsecs:         0
      frame_id: ''
    child_frame_id: "my_bundle"
    transform: 
      translation: 
        x: 0.0710678748618
        y: 0.0150360160385
        z: 0.468969199321
      rotation: 
        x: 0.874727294873
        y: 0.394460001851
        z: 0.243404501961
        w: -0.141448630138
---
transforms: 
  - 
    header: 
      seq: 0
      stamp: 
        secs: 0
        nsecs:         0
      frame_id: ''
    child_frame_id: "tag_0"
    transform: 
      translation: 
        x: 0.0712229539581
        y: 0.0150415192168
        z: 0.470586028451
      rotation: 
        x: 0.873304070921
        y: 0.396443630674
        z: 0.238686036176
        w: -0.15232013506
---
transforms: 
  - 
    header: 
      seq: 0
      stamp: 
        secs: 0
        nsecs:         0
      frame_id: ''
    child_frame_id: "tag_4"
    transform: 
      translation: 
        x: 0.0613410665233
        y: 0.0785251058913
        z: 0.497049017479
      rotation: 
        x: 0.876231003266
        y: 0.397279626543
        z: 0.23316191906
        w: -0.141504935426
---
transforms: 
  - 
    header: 
      seq: 0
      stamp: 
        secs: 0
        nsecs:         0
      frame_id: ''
    child_frame_id: "tag_3"
    transform: 
      translation: 
        x: 0.00452341083353
        y: 0.0164322181846
        z: 0.44595670459
      rotation: 
        x: 0.871668737058
        y: 0.394806718231
        z: 0.249003298245
        w: -0.14939419513
---
transforms: 
  - 
    header: 
      seq: 0
      stamp: 
        secs: 0
        nsecs:         0
      frame_id: ''
    child_frame_id: "tag_2"
    transform: 
      translation: 
        x: 0.138859497631
        y: 0.0136187615145
        z: 0.497153017205
      rotation: 
        x: 0.876006771299
        y: 0.392792487385
        z: 0.242000788314
        w: -0.140576729753
---
transforms: 
  - 
    header: 
      seq: 0
      stamp: 
        secs: 0
        nsecs:         0
      frame_id: ''
    child_frame_id: "tag_1"
    transform: 
      translation: 
        x: 0.0810422535765
        y: -0.0487768523018
        z: 0.441941059578
      rotation: 
        x: 0.874279425757
        y: 0.388330409914
        z: 0.257711181793
        w: -0.135720025097
---
transforms: 
  - 
    header: 
      seq: 0
      stamp: 
        secs: 0
        nsecs:         0
      frame_id: ''
    child_frame_id: "my_bundle"
    transform: 
      translation: 
        x: 0.0710682709741
        y: 0.0150345551934
        z: 0.468999280295
      rotation: 
        x: 0.874761702465
        y: 0.39447736809
        z: 0.243240703926
        w: -0.141469183635
---
^Ctransforms: 
  - 
    header: 
      seq: 0
      stamp: 
        secs: 0
        nsecs:         0
      frame_id: ''
    child_frame_id: "tag_0"
    transform: 
      translation: 
        x: 0.0712148701392
        y: 0.0150533181641
        z: 0.47048275914
      rotation: 
        x: 0.873110716988
        y: 0.396648853877
        z: 0.239358133122
        w: -0.15183888404
---
transforms: 
  - 
    header: 
      seq: 0
      stamp: 
        secs: 0
        nsecs:         0
      frame_id: ''
    child_frame_id: "tag_1"
    transform: 
      translation: 
        x: 0.0810605948574
        y: -0.0487855092934
        z: 0.441984804509
      rotation: 
        x: 0.87431649443
        y: 0.388290874732
        z: 0.257179175165
        w: -0.136600644322
---
transforms: 
  - 
    header: 
      seq: 0
      stamp: 
        secs: 0
        nsecs:         0
      frame_id: ''
    child_frame_id: "tag_3"
    transform: 
      translation: 
        x: 0.00451681222366
        y: 0.0164288129485
        z: 0.445967076401
      rotation: 
        x: 0.871573956216
        y: 0.394786701362
        z: 0.249266472816
        w: -0.149561107254
---
transforms: 
  - 
    header: 
      seq: 0
      stamp: 
        secs: 0
        nsecs:         0
      frame_id: ''
    child_frame_id: "tag_2"
    transform: 
      translation: 
        x: 0.138937910878
        y: 0.0136232205972
        z: 0.497466969611
      rotation: 
        x: 0.875806882895
        y: 0.393104865743
        z: 0.241901899657
        w: -0.141118175108
---
transforms: 
  - 
    header: 
      seq: 0
      stamp: 
        secs: 0
        nsecs:         0
      frame_id: ''
    child_frame_id: "tag_4"
    transform: 
      translation: 
        x: 0.0613454265959
        y: 0.0785321029556
        z: 0.497021400711
      rotation: 
        x: 0.876095531636
        y: 0.397840647451
        z: 0.232853074601
        w: -0.141275915613
---
transforms: 
  - 
    header: 
      seq: 0
      stamp: 
        secs: 0
        nsecs:         0
      frame_id: ''
    child_frame_id: "my_bundle"
    transform: 
      translation: 
        x: 0.0710667130377
        y: 0.0150364364415
        z: 0.468971462156
      rotation: 
        x: 0.874728575384
        y: 0.394524968832
        z: 0.24328706614
        w: -0.141461555993
---

