---
transforms: 
  - 
    header: 
      seq: 0
      stamp: 
        secs: 0
        nsecs:         0
      frame_id: ''
    child_frame_id: "my_bundle"
    transform: 
      translation: 
        x: 0.213134467584
        y: -0.0780769185048
        z: 0.840070803724
      rotation: 
        x: 0.348856599898
        y: 0.84855692375
        z: 0.264944412276
        w: -0.296740085373
---
transforms: 
  - 
    header: 
      seq: 0
      stamp: 
        secs: 0
        nsecs:         0
      frame_id: ''
    child_frame_id: "tag_3"
    transform: 
      translation: 
        x: 0.206121285492
        y: -0.131767074028
        z: 0.799368749448
      rotation: 
        x: 0.346458819314
        y: 0.848601471343
        z: 0.261092382256
        w: -0.30277482934
---
transforms: 
  - 
    header: 
      seq: 0
      stamp: 
        secs: 0
        nsecs:         0
      frame_id: ''
    child_frame_id: "tag_4"
    transform: 
      translation: 
        x: 0.149267340271
        y: -0.0887132523305
        z: 0.877819049052
      rotation: 
        x: 0.347956913246
        y: 0.854554204891
        z: 0.251757556497
        w: -0.292029502232
---
transforms: 
  - 
    header: 
      seq: 0
      stamp: 
        secs: 0
        nsecs:         0
      frame_id: ''
    child_frame_id: "tag_1"
    transform: 
      translation: 
        x: 0.279858079071
        y: -0.0689659317032
        z: 0.817256432985
      rotation: 
        x: 0.352660990079
        y: 0.839926139677
        z: 0.28401316618
        w: -0.299150175331
---
transforms: 
  - 
    header: 
      seq: 0
      stamp: 
        secs: 0
        nsecs:         0
      frame_id: ''
    child_frame_id: "tag_2"
    transform: 
      translation: 
        x: 0.224808270937
        y: -0.0257524234793
        z: 0.900109129156
      rotation: 
        x: 0.352711660056
        y: 0.845849330279
        z: 0.265960405149
        w: -0.298995749502
---
transforms: 
  - 
    header: 
      seq: 0
      stamp: 
        secs: 0
        nsecs:         0
      frame_id: ''
    child_frame_id: "tag_0"
    transform: 
      translation: 
        x: 0.215195350652
        y: -0.0788831487956
        z: 0.849089413495
      rotation: 
        x: 0.345676831679
        y: 0.852706924473
        z: 0.25800660066
        w: -0.294671042031
---
transforms: 
  - 
    header: 
      seq: 0
      stamp: 
        secs: 0
        nsecs:         0
      frame_id: ''
    child_frame_id: "my_bundle"
    transform: 
      translation: 
        x: 0.213124633825
        y: -0.0780701492765
        z: 0.840059684626
      rotation: 
        x: 0.348913554354
        y: 0.848483848664
        z: 0.264952341291
        w: -0.296874968613
---
transforms: 
  - 
    header: 
      seq: 0
      stamp: 
        secs: 0
        nsecs:         0
      frame_id: ''
    child_frame_id: "tag_4"
    transform: 
      translation: 
        x: 0.149202679444
        y: -0.0886960253984
        z: 0.877560252269
      rotation: 
        x: 0.347930642238
        y: 0.853991393345
        z: 0.252724213157
        w: -0.292871030266
---
transforms: 
  - 
    header: 
      seq: 0
      stamp: 
        secs: 0
        nsecs:         0
      frame_id: ''
    child_frame_id: "tag_3"
    transform: 
      translation: 
        x: 0.206573398516
        y: -0.132040516765
        z: 0.800949402463
      rotation: 
        x: 0.345755203733
        y: 0.849673193011
        z: 0.258940754059
        w: -0.302421047642
---
transforms: 
  - 
    header: 
      seq: 0
      stamp: 
        secs: 0
        nsecs:         0
      frame_id: ''
    child_frame_id: "tag_1"
    transform: 
      translation: 
        x: 0.280107051185
        y: -0.0690282607396
        z: 0.817978085968
      rotation: 
        x: 0.35285664369
        y: 0.840473206752
        z: 0.282482992244
        w: -0.298831619526
---
transforms: 
  - 
    header: 
      seq: 0
      stamp: 
        secs: 0
        nsecs:         0
      frame_id: ''
    child_frame_id: "tag_2"
    transform: 
      translation: 
        x: 0.224768154566
        y: -0.0257064386595
        z: 0.900127018546
      rotation: 
        x: 0.352267899394
        y: 0.846490031308
        z: 0.266070808767
        w: -0.297604231615
---
transforms: 
  - 
    header: 
      seq: 0
      stamp: 
        secs: 0
        nsecs:         0
      frame_id: ''
    child_frame_id: "tag_0"
    transform: 
      translation: 
        x: 0.21528389033
        y: -0.0789296776091
        z: 0.849444705057
      rotation: 
        x: 0.345468477366
        y: 0.85313155134
        z: 0.256603129716
        w: -0.294911717424
---
transforms: 
  - 
    header: 
      seq: 0
      stamp: 
        secs: 0
        nsecs:         0
      frame_id: ''
    child_frame_id: "my_bundle"
    transform: 
      translation: 
        x: 0.213148703225
        y: -0.078078144231
        z: 0.840162681011
      rotation: 
        x: 0.348787899223
        y: 0.848764541064
        z: 0.264669520536
        w: -0.296472258545
---
transforms: 
  - 
    header: 
      seq: 0
      stamp: 
        secs: 0
        nsecs:         0
      frame_id: ''
    child_frame_id: "tag_3"
    transform: 
      translation: 
        x: 0.206204562568
        y: -0.131845760406
        z: 0.79974328945
      rotation: 
        x: 0.345946402101
        y: 0.848937690898
        z: 0.261487519297
        w: -0.302076415993
---
transforms: 
  - 
    header: 
      seq: 0
      stamp: 
        secs: 0
        nsecs:         0
      frame_id: ''
    child_frame_id: "tag_0"
    transform: 
      translation: 
        x: 0.215253848066
        y: -0.0789210740106
        z: 0.849262123795
      rotation: 
        x: 0.34535628167
        y: 0.853097123473
        z: 0.258319795569
        w: -0.293641311552
---
transforms: 
  - 
    header: 
      seq: 0
      stamp: 
        secs: 0
        nsecs:         0
      frame_id: ''
    child_frame_id: "tag_4"
    transform: 
      translation: 
        x: 0.149104926686
        y: -0.0886282150144
        z: 0.87706824421
      rotation: 
        x: 0.348252357927
        y: 0.853646223483
        z: 0.253691884477
        w: -0.292658244515
---
transforms: 
  - 
    header: 
      seq: 0
      stamp: 
        secs: 0
        nsecs:         0
      frame_id: ''
    child_frame_id: "tag_2"
    transform: 
      translation: 
        x: 0.224662769631
        y: -0.0257251233196
        z: 0.899524761378
      rotation: 
        x: 0.352432595763
        y: 0.845864442434
        z: 0.266521561122
        w: -0.298782308591
---
transforms: 
  - 
    header: 
      seq: 0
      stamp: 
        secs: 0
        nsecs:         0
      frame_id: ''
    child_frame_id: "tag_1"
    transform: 
      translation: 
        x: 0.279667852064
        y: -0.0689293422772
        z: 0.816653297397
      rotation: 
        x: 0.352823515066
        y: 0.839795810881
        z: 0.282884051437
        w: -0.30039170542
---
transforms: 
  - 
    header: 
      seq: 0
      stamp: 
        secs: 0
        nsecs:         0
      frame_id: ''
    child_frame_id: "my_bundle"
    transform: 
      translation: 
        x: 0.213054699804
        y: -0.0780519636705
        z: 0.839797572492
      rotation: 
        x: 0.348943692775
        y: 0.848438109569
        z: 0.265078699192
        w: -0.296857468727
---

