transforms: 
  - 
    header: 
      seq: 0
      stamp: 
        secs: 0
        nsecs:         0
      frame_id: ''
    child_frame_id: "my_bundle"
    transform: 
      translation: 
        x: 0.130086415885
        y: 0.0949466111544
        z: 0.63069615456
      rotation: 
        x: 0.741619123872
        y: 0.607705552429
        z: 0.197817384228
        w: -0.203870839384
---
transforms: 
  - 
    header: 
      seq: 0
      stamp: 
        secs: 0
        nsecs:         0
      frame_id: ''
    child_frame_id: "tag_0"
    transform: 
      translation: 
        x: 0.130710183571
        y: 0.0954559682421
        z: 0.63424841693
      rotation: 
        x: 0.739747566607
        y: 0.60941013118
        z: 0.188258756403
        w: -0.214362940716
---
transforms: 
  - 
    header: 
      seq: 0
      stamp: 
        secs: 0
        nsecs:         0
      frame_id: ''
    child_frame_id: "tag_4"
    transform: 
      translation: 
        x: 0.0903430998963
        y: 0.145754169352
        z: 0.663949097791
      rotation: 
        x: 0.742724988878
        y: 0.611683681222
        z: 0.184329767017
        w: -0.200562214823
---
transforms: 
  - 
    header: 
      seq: 0
      stamp: 
        secs: 0
        nsecs:         0
      frame_id: ''
    child_frame_id: "tag_1"
    transform: 
      translation: 
        x: 0.17031696
        y: 0.0449992006965
        z: 0.60121573773
      rotation: 
        x: 0.742273731165
        y: 0.601577837833
        z: 0.216229140506
        w: -0.200944698476
---
transforms: 
  - 
    header: 
      seq: 0
      stamp: 
        secs: 0
        nsecs:         0
      frame_id: ''
    child_frame_id: "tag_3"
    transform: 
      translation: 
        x: 0.0723861262061
        y: 0.0632982564104
        z: 0.612201527502
      rotation: 
        x: 0.738433697019
        y: 0.608140229291
        z: 0.199049315568
        w: -0.212745168209
---
transforms: 
  - 
    header: 
      seq: 0
      stamp: 
        secs: 0
        nsecs:         0
      frame_id: ''
    child_frame_id: "tag_2"
    transform: 
      translation: 
        x: 0.190495334587
        y: 0.128360258702
        z: 0.661270376193
      rotation: 
        x: 0.743976769788
        y: 0.60500495611
        z: 0.199687272309
        w: -0.201475959798
---
transforms: 
  - 
    header: 
      seq: 0
      stamp: 
        secs: 0
        nsecs:         0
      frame_id: ''
    child_frame_id: "my_bundle"
    transform: 
      translation: 
        x: 0.13006298913
        y: 0.0949449407296
        z: 0.630645345
      rotation: 
        x: 0.741608275363
        y: 0.607725855166
        z: 0.197675905419
        w: -0.203986978241
---
transforms: 
  - 
    header: 
      seq: 0
      stamp: 
        secs: 0
        nsecs:         0
      frame_id: ''
    child_frame_id: "tag_3"
    transform: 
      translation: 
        x: 0.0724072334776
        y: 0.0633076439504
        z: 0.612300581106
      rotation: 
        x: 0.738681498029
        y: 0.607526215829
        z: 0.201374184181
        w: -0.2114473445
---
transforms: 
  - 
    header: 
      seq: 0
      stamp: 
        secs: 0
        nsecs:         0
      frame_id: ''
    child_frame_id: "tag_0"
    transform: 
      translation: 
        x: 0.130771273132
        y: 0.095518288819
        z: 0.63459857278
      rotation: 
        x: 0.739391931636
        y: 0.610214541257
        z: 0.188176578625
        w: -0.213371414036
---
transforms: 
  - 
    header: 
      seq: 0
      stamp: 
        secs: 0
        nsecs:         0
      frame_id: ''
    child_frame_id: "tag_1"
    transform: 
      translation: 
        x: 0.170347351332
        y: 0.0449999019868
        z: 0.601175084767
      rotation: 
        x: 0.742876715757
        y: 0.600794210436
        z: 0.215301093957
        w: -0.202054301697
---
transforms: 
  - 
    header: 
      seq: 0
      stamp: 
        secs: 0
        nsecs:         0
      frame_id: ''
    child_frame_id: "tag_4"
    transform: 
      translation: 
        x: 0.0902985728081
        y: 0.145632677013
        z: 0.663498819339
      rotation: 
        x: 0.743387057795
        y: 0.61057780522
        z: 0.183343329901
        w: -0.20237502182
---
transforms: 
  - 
    header: 
      seq: 0
      stamp: 
        secs: 0
        nsecs:         0
      frame_id: ''
    child_frame_id: "tag_2"
    transform: 
      translation: 
        x: 0.190663707889
        y: 0.12848831719
        z: 0.661816413596
      rotation: 
        x: 0.744140709366
        y: 0.604492144403
        z: 0.198847915187
        w: -0.203232277566
---
transforms: 
  - 
    header: 
      seq: 0
      stamp: 
        secs: 0
        nsecs:         0
      frame_id: ''
    child_frame_id: "my_bundle"
    transform: 
      translation: 
        x: 0.130065849616
        y: 0.0949410006193
        z: 0.630598662404
      rotation: 
        x: 0.741616093272
        y: 0.607639844079
        z: 0.197614152145
        w: -0.204274415824
---
transforms: 
  - 
    header: 
      seq: 0
      stamp: 
        secs: 0
        nsecs:         0
      frame_id: ''
    child_frame_id: "tag_2"
    transform: 
      translation: 
        x: 0.19044169899
        y: 0.128310415898
        z: 0.661134927982
      rotation: 
        x: 0.743912241113
        y: 0.604909243135
        z: 0.199240650935
        w: -0.202441468349
---
transforms: 
  - 
    header: 
      seq: 0
      stamp: 
        secs: 0
        nsecs:         0
      frame_id: ''
    child_frame_id: "tag_3"
    transform: 
      translation: 
        x: 0.0724021532553
        y: 0.0633002478033
        z: 0.612297014152
      rotation: 
        x: 0.738463864148
        y: 0.608102384671
        z: 0.199836873684
        w: -0.212009044671
---
transforms: 
  - 
    header: 
      seq: 0
      stamp: 
        secs: 0
        nsecs:         0
      frame_id: ''
    child_frame_id: "tag_4"
    transform: 
      translation: 
        x: 0.0902262731934
        y: 0.145497715559
        z: 0.662845083415
      rotation: 
        x: 0.742210877843
        y: 0.612182847182
        z: 0.186285580985
        w: -0.199130250702
---
transforms: 
  - 
    header: 
      seq: 0
      stamp: 
        secs: 0
        nsecs:         0
      frame_id: ''
    child_frame_id: "tag_0"
    transform: 
      translation: 
        x: 0.130708741111
        y: 0.0954616613948
        z: 0.634279316719
      rotation: 
        x: 0.73939699374
        y: 0.610092816594
        z: 0.188690065157
        w: -0.21324844689
---
transforms: 
  - 
    header: 
      seq: 0
      stamp: 
        secs: 0
        nsecs:         0
      frame_id: ''
    child_frame_id: "tag_1"
    transform: 
      translation: 
        x: 0.170447938062
        y: 0.0450249023891
        z: 0.60168900815
      rotation: 
        x: 0.742038270308
        y: 0.602153591972
        z: 0.215582190827
        w: -0.200784900009
---
transforms: 
  - 
    header: 
      seq: 0
      stamp: 
        secs: 0
        nsecs:         0
      frame_id: ''
    child_frame_id: "my_bundle"
    transform: 
      translation: 
        x: 0.130079811455
        y: 0.0949443138929
        z: 0.630715124969
      rotation: 
        x: 0.741582547274
        y: 0.607779996605
        z: 0.197749752608
        w: -0.203847581907
---

