---
transforms: 
  - 
    header: 
      seq: 0
      stamp: 
        secs: 0
        nsecs:         0
      frame_id: ''
    child_frame_id: "my_bundle"
    transform: 
      translation: 
        x: 0.12563201258
        y: 0.183251748799
        z: 0.663975329374
      rotation: 
        x: 0.780666514076
        y: 0.624674895434
        z: -0.011063821853
        w: -0.0147871789369
---
transforms: 
  - 
    header: 
      seq: 0
      stamp: 
        secs: 0
        nsecs:         0
      frame_id: ''
    child_frame_id: "tag_1"
    transform: 
      translation: 
        x: 0.164002826784
        y: 0.123853363411
        z: 0.664387230229
      rotation: 
        x: 0.781103234705
        y: 0.624389926109
        z: -0.00370094952755
        w: -0.00112244381904
---
transforms: 
  - 
    header: 
      seq: 0
      stamp: 
        secs: 0
        nsecs:         0
      frame_id: ''
    child_frame_id: "tag_3"
    transform: 
      translation: 
        x: 0.0658428593572
        y: 0.145652994292
        z: 0.668022980208
      rotation: 
        x: 0.781576673725
        y: 0.622863443275
        z: -0.0246004175055
        w: -0.0239552411639
---
transforms: 
  - 
    header: 
      seq: 0
      stamp: 
        secs: 0
        nsecs:         0
      frame_id: ''
    child_frame_id: "tag_2"
    transform: 
      translation: 
        x: 0.188512864529
        y: 0.224862078225
        z: 0.673214096406
      rotation: 
        x: 0.780623385893
        y: 0.624757605383
        z: 0.0017912220517
        w: -0.0173739873853
---
transforms: 
  - 
    header: 
      seq: 0
      stamp: 
        secs: 0
        nsecs:         0
      frame_id: ''
    child_frame_id: "tag_0"
    transform: 
      translation: 
        x: 0.126500548897
        y: 0.184562291567
        z: 0.667858031168
      rotation: 
        x: 0.780383236653
        y: 0.624099123205
        z: -0.0348127683753
        w: -0.0170399390631
---
transforms: 
  - 
    header: 
      seq: 0
      stamp: 
        secs: 0
        nsecs:         0
      frame_id: ''
    child_frame_id: "my_bundle"
    transform: 
      translation: 
        x: 0.125596185425
        y: 0.183220187827
        z: 0.663834518769
      rotation: 
        x: 0.780610337067
        y: 0.62476395945
        z: -0.0105486794236
        w: -0.0143604317211
---
transforms: 
  - 
    header: 
      seq: 0
      stamp: 
        secs: 0
        nsecs:         0
      frame_id: ''
    child_frame_id: "tag_1"
    transform: 
      translation: 
        x: 0.164011564903
        y: 0.123825566865
        z: 0.664384240421
      rotation: 
        x: 0.780697367534
        y: 0.62490462407
        z: -0.00228261694244
        w: -0.00078790988685
---
transforms: 
  - 
    header: 
      seq: 0
      stamp: 
        secs: 0
        nsecs:         0
      frame_id: ''
    child_frame_id: "tag_0"
    transform: 
      translation: 
        x: 0.126555633154
        y: 0.184658718406
        z: 0.668160654726
      rotation: 
        x: 0.780451384933
        y: 0.623801121241
        z: -0.0371803590405
        w: -0.0196320604129
---
transforms: 
  - 
    header: 
      seq: 0
      stamp: 
        secs: 0
        nsecs:         0
      frame_id: ''
    child_frame_id: "tag_2"
    transform: 
      translation: 
        x: 0.188640612874
        y: 0.224992193692
        z: 0.673597505838
      rotation: 
        x: 0.780508407579
        y: 0.624951632745
        z: 0.0020564797104
        w: -0.0154224939213
---
transforms: 
  - 
    header: 
      seq: 0
      stamp: 
        secs: 0
        nsecs:         0
      frame_id: ''
    child_frame_id: "tag_3"
    transform: 
      translation: 
        x: 0.0658360969774
        y: 0.145642869037
        z: 0.667944980519
      rotation: 
        x: 0.781455909512
        y: 0.622954976263
        z: -0.0249919586545
        w: -0.0250830827663
---
transforms: 
  - 
    header: 
      seq: 0
      stamp: 
        secs: 0
        nsecs:         0
      frame_id: ''
    child_frame_id: "my_bundle"
    transform: 
      translation: 
        x: 0.125589889788
        y: 0.183199216639
        z: 0.663750978068
      rotation: 
        x: 0.780569868402
        y: 0.624826632496
        z: -0.0103637583137
        w: -0.0139625348935
---

