---
transforms: 
  - 
    header: 
      seq: 0
      stamp: 
        secs: 0
        nsecs:         0
      frame_id: ''
    child_frame_id: "my_bundle"
    transform: 
      translation: 
        x: -0.293928976533
        y: -0.0791943189163
        z: 0.739953071295
      rotation: 
        x: 0.510236493515
        y: 0.827180781797
        z: 0.221130834594
        w: -0.0808197309055
---
transforms: 
  - 
    header: 
      seq: 0
      stamp: 
        secs: 0
        nsecs:         0
      frame_id: ''
    child_frame_id: "tag_1"
    transform: 
      translation: 
        x: -0.227008724825
        y: -0.100908140667
        z: 0.738448013807
      rotation: 
        x: 0.508088811619
        y: 0.821383871307
        z: 0.245893996664
        w: -0.0819172623405
---
transforms: 
  - 
    header: 
      seq: 0
      stamp: 
        secs: 0
        nsecs:         0
      frame_id: ''
    child_frame_id: "tag_4"
    transform: 
      translation: 
        x: -0.365857464778
        y: -0.058430307302
        z: 0.752978892435
      rotation: 
        x: 0.510963138224
        y: 0.830578565443
        z: 0.208076721337
        w: -0.075894637757
---
transforms: 
  - 
    header: 
      seq: 0
      stamp: 
        secs: 0
        nsecs:         0
      frame_id: ''
    child_frame_id: "tag_3"
    transform: 
      translation: 
        x: -0.319037582715
        y: -0.140813838389
        z: 0.717595493476
      rotation: 
        x: 0.511329420717
        y: 0.828427777108
        z: 0.212165586951
        w: -0.0850611858516
---
transforms: 
  - 
    header: 
      seq: 0
      stamp: 
        secs: 0
        nsecs:         0
      frame_id: ''
    child_frame_id: "tag_2"
    transform: 
      translation: 
        x: -0.27517852897
        y: -0.0197616806323
        z: 0.777916966957
      rotation: 
        x: 0.507515097932
        y: 0.8248058923
        z: 0.235988252339
        w: -0.0802072949109
---
transforms: 
  - 
    header: 
      seq: 0
      stamp: 
        secs: 0
        nsecs:         0
      frame_id: ''
    child_frame_id: "tag_0"
    transform: 
      translation: 
        x: -0.294336090126
        y: -0.0792452916027
        z: 0.740496760119
      rotation: 
        x: 0.507600718281
        y: 0.829305731756
        z: 0.2156759084
        w: -0.0898744491698
---
transforms: 
  - 
    header: 
      seq: 0
      stamp: 
        secs: 0
        nsecs:         0
      frame_id: ''
    child_frame_id: "my_bundle"
    transform: 
      translation: 
        x: -0.294019747606
        y: -0.0792307216746
        z: 0.7402111199
      rotation: 
        x: 0.510362237543
        y: 0.8271637023
        z: 0.221092549913
        w: -0.0803036765006
---
transforms: 
  - 
    header: 
      seq: 0
      stamp: 
        secs: 0
        nsecs:         0
      frame_id: ''
    child_frame_id: "tag_2"
    transform: 
      translation: 
        x: -0.275250469264
        y: -0.019791303436
        z: 0.778162521181
      rotation: 
        x: 0.5082989744
        y: 0.82452161388
        z: 0.235132631152
        w: -0.0806777951832
---
transforms: 
  - 
    header: 
      seq: 0
      stamp: 
        secs: 0
        nsecs:         0
      frame_id: ''
    child_frame_id: "tag_4"
    transform: 
      translation: 
        x: -0.365393701859
        y: -0.0583709320154
        z: 0.752031768428
      rotation: 
        x: 0.511448171937
        y: 0.830716664518
        z: 0.205364631593
        w: -0.0784599184584
---
transforms: 
  - 
    header: 
      seq: 0
      stamp: 
        secs: 0
        nsecs:         0
      frame_id: ''
    child_frame_id: "tag_3"
    transform: 
      translation: 
        x: -0.319084613883
        y: -0.140808853174
        z: 0.717660757254
      rotation: 
        x: 0.510638367975
        y: 0.828544670331
        z: 0.212422724727
        w: -0.0874000711504
---
transforms: 
  - 
    header: 
      seq: 0
      stamp: 
        secs: 0
        nsecs:         0
      frame_id: ''
    child_frame_id: "tag_0"
    transform: 
      translation: 
        x: -0.294240835455
        y: -0.0792220774113
        z: 0.740249496628
      rotation: 
        x: 0.507897838125
        y: 0.828927472658
        z: 0.216624955397
        w: -0.0894016767214
---
transforms: 
  - 
    header: 
      seq: 0
      stamp: 
        secs: 0
        nsecs:         0
      frame_id: ''
    child_frame_id: "tag_1"
    transform: 
      translation: 
        x: -0.227119171368
        y: -0.100943873996
        z: 0.738795519512
      rotation: 
        x: 0.508275174486
        y: 0.821404180436
        z: 0.246006228448
        w: -0.0802025867877
---
transforms: 
  - 
    header: 
      seq: 0
      stamp: 
        secs: 0
        nsecs:         0
      frame_id: ''
    child_frame_id: "my_bundle"
    transform: 
      translation: 
        x: -0.294018061431
        y: -0.079230335629
        z: 0.74020228086
      rotation: 
        x: 0.510351602147
        y: 0.827113226813
        z: 0.221162497796
        w: -0.08069759467
---

