transforms: 
  - 
    header: 
      seq: 0
      stamp: 
        secs: 0
        nsecs:         0
      frame_id: ''
    child_frame_id: "my_bundle"
    transform: 
      translation: 
        x: -0.252185597789
        y: -0.135046544953
        z: 0.780811191708
      rotation: 
        x: 0.850021797757
        y: 0.283106576612
        z: 0.385757546088
        w: -0.220237883329
---
transforms: 
  - 
    header: 
      seq: 0
      stamp: 
        secs: 0
        nsecs:         0
      frame_id: ''
    child_frame_id: "tag_3"
    transform: 
      translation: 
        x: -0.313261803934
        y: -0.113835938576
        z: 0.752087023943
      rotation: 
        x: 0.844207015713
        y: 0.28438564092
        z: 0.396636172383
        w: -0.221628221616
---
transforms: 
  - 
    header: 
      seq: 0
      stamp: 
        secs: 0
        nsecs:         0
      frame_id: ''
    child_frame_id: "tag_2"
    transform: 
      translation: 
        x: -0.196881617484
        y: -0.160328338456
        z: 0.830776697018
      rotation: 
        x: 0.853834834829
        y: 0.28116379085
        z: 0.387282841889
        w: -0.204755947229
---
transforms: 
  - 
    header: 
      seq: 0
      stamp: 
        secs: 0
        nsecs:         0
      frame_id: ''
    child_frame_id: "tag_4"
    transform: 
      translation: 
        x: -0.256904849333
        y: -0.0819985826109
        z: 0.825823525911
      rotation: 
        x: 0.849437827734
        y: 0.287166650412
        z: 0.380108859889
        w: -0.226953621562
---
transforms: 
  - 
    header: 
      seq: 0
      stamp: 
        secs: 0
        nsecs:         0
      frame_id: ''
    child_frame_id: "tag_1"
    transform: 
      translation: 
        x: -0.250838691313
        y: -0.19092717412
        z: 0.746103123878
      rotation: 
        x: 0.852568301709
        y: 0.27531625194
        z: 0.395318468099
        w: -0.202611848415
---
transforms: 
  - 
    header: 
      seq: 0
      stamp: 
        secs: 0
        nsecs:         0
      frame_id: ''
    child_frame_id: "tag_0"
    transform: 
      translation: 
        x: -0.251926541993
        y: -0.135033470998
        z: 0.780550844871
      rotation: 
        x: 0.845669038254
        y: 0.287383163538
        z: 0.384559327358
        w: -0.23317143649
---
transforms: 
  - 
    header: 
      seq: 0
      stamp: 
        secs: 0
        nsecs:         0
      frame_id: ''
    child_frame_id: "my_bundle"
    transform: 
      translation: 
        x: -0.252228412062
        y: -0.135066260372
        z: 0.780945656522
      rotation: 
        x: 0.849993340171
        y: 0.283057723266
        z: 0.385877778972
        w: -0.220199878881
---
transforms: 
  - 
    header: 
      seq: 0
      stamp: 
        secs: 0
        nsecs:         0
      frame_id: ''
    child_frame_id: "tag_3"
    transform: 
      translation: 
        x: -0.313868567323
        y: -0.114032777981
        z: 0.753539095532
      rotation: 
        x: 0.84557674278
        y: 0.284071812208
        z: 0.395579149818
        w: -0.218678562754
---
transforms: 
  - 
    header: 
      seq: 0
      stamp: 
        secs: 0
        nsecs:         0
      frame_id: ''
    child_frame_id: "tag_4"
    transform: 
      translation: 
        x: -0.256740641846
        y: -0.0819499517951
        z: 0.825316397963
      rotation: 
        x: 0.849076890352
        y: 0.287498156218
        z: 0.380303970683
        w: -0.227556881513
---
transforms: 
  - 
    header: 
      seq: 0
      stamp: 
        secs: 0
        nsecs:         0
      frame_id: ''
    child_frame_id: "tag_2"
    transform: 
      translation: 
        x: -0.196888338283
        y: -0.160310740069
        z: 0.830722924114
      rotation: 
        x: 0.853621894835
        y: 0.280734862623
        z: 0.386611529034
        w: -0.20748282624
---
transforms: 
  - 
    header: 
      seq: 0
      stamp: 
        secs: 0
        nsecs:         0
      frame_id: ''
    child_frame_id: "tag_1"
    transform: 
      translation: 
        x: -0.250385743148
        y: -0.190610441489
        z: 0.744818654582
      rotation: 
        x: 0.851367708491
        y: 0.276267138589
        z: 0.395683596576
        w: -0.205630699252
---
transforms: 
  - 
    header: 
      seq: 0
      stamp: 
        secs: 0
        nsecs:         0
      frame_id: ''
    child_frame_id: "tag_0"
    transform: 
      translation: 
        x: -0.252181864139
        y: -0.135186358794
        z: 0.781400130421
      rotation: 
        x: 0.846564730955
        y: 0.287107210397
        z: 0.383419232112
        w: -0.232136379072
---
transforms: 
  - 
    header: 
      seq: 0
      stamp: 
        secs: 0
        nsecs:         0
      frame_id: ''
    child_frame_id: "my_bundle"
    transform: 
      translation: 
        x: -0.252208941517
        y: -0.135057796784
        z: 0.780905481865
      rotation: 
        x: 0.84996903424
        y: 0.283030722182
        z: 0.385980082691
        w: -0.220149101519
---
transforms: 
  - 
    header: 
      seq: 0
      stamp: 
        secs: 0
        nsecs:         0
      frame_id: ''
    child_frame_id: "tag_3"
    transform: 
      translation: 
        x: -0.313097547173
        y: -0.113800191742
        z: 0.751737054366
      rotation: 
        x: 0.843225959949
        y: 0.285025336204
        z: 0.396837853466
        w: -0.224165689271
---
transforms: 
  - 
    header: 
      seq: 0
      stamp: 
        secs: 0
        nsecs:         0
      frame_id: ''
    child_frame_id: "tag_4"
    transform: 
      translation: 
        x: -0.25734422698
        y: -0.0821224463516
        z: 0.827153002611
      rotation: 
        x: 0.849537456209
        y: 0.287802207785
        z: 0.380464803916
        w: -0.225172228913
---
transforms: 
  - 
    header: 
      seq: 0
      stamp: 
        secs: 0
        nsecs:         0
      frame_id: ''
    child_frame_id: "tag_2"
    transform: 
      translation: 
        x: -0.196602383037
        y: -0.160105575803
        z: 0.829540331769
      rotation: 
        x: 0.852897166194
        y: 0.281228585711
        z: 0.387658368804
        w: -0.207841034383
---
transforms: 
  - 
    header: 
      seq: 0
      stamp: 
        secs: 0
        nsecs:         0
      frame_id: ''
    child_frame_id: "tag_1"
    transform: 
      translation: 
        x: -0.250467878136
        y: -0.190694685462
        z: 0.745085746038
      rotation: 
        x: 0.852573594999
        y: 0.275576596033
        z: 0.394590951902
        w: -0.203651136766
---
transforms: 
  - 
    header: 
      seq: 0
      stamp: 
        secs: 0
        nsecs:         0
      frame_id: ''
    child_frame_id: "tag_0"
    transform: 
      translation: 
        x: -0.251902402558
        y: -0.135050384203
        z: 0.780489504373
      rotation: 
        x: 0.845514862716
        y: 0.288024363671
        z: 0.383920940382
        w: -0.233989945072
---
transforms: 
  - 
    header: 
      seq: 0
      stamp: 
        secs: 0
        nsecs:         0
      frame_id: ''
    child_frame_id: "my_bundle"
    transform: 
      translation: 
        x: -0.252197578051
        y: -0.135069385551
        z: 0.780863830547
      rotation: 
        x: 0.849860902122
        y: 0.283162586462
        z: 0.38608647653
        w: -0.220210420536
---

