---
transforms: 
  - 
    header: 
      seq: 0
      stamp: 
        secs: 0
        nsecs:         0
      frame_id: ''
    child_frame_id: "my_bundle"
    transform: 
      translation: 
        x: 0.127712003325
        y: 0.246345440172
        z: 0.842196685944
      rotation: 
        x: 0.303239863325
        y: 0.918941981263
        z: -0.114734880519
        w: -0.224559852945
---
transforms: 
  - 
    header: 
      seq: 0
      stamp: 
        secs: 0
        nsecs:         0
      frame_id: ''
    child_frame_id: "tag_0"
    transform: 
      translation: 
        x: 0.12750874703
        y: 0.246007558088
        z: 0.840630359699
      rotation: 
        x: 0.300812865498
        y: 0.915169937707
        z: -0.127344989306
        w: -0.236133137801
---
transforms: 
  - 
    header: 
      seq: 0
      stamp: 
        secs: 0
        nsecs:         0
      frame_id: ''
    child_frame_id: "tag_1"
    transform: 
      translation: 
        x: 0.191081519558
        y: 0.258506783503
        z: 0.817242759706
      rotation: 
        x: 0.308230945734
        y: 0.918940336619
        z: -0.101452890954
        w: -0.224164343158
---
transforms: 
  - 
    header: 
      seq: 0
      stamp: 
        secs: 0
        nsecs:         0
      frame_id: ''
    child_frame_id: "tag_4"
    transform: 
      translation: 
        x: 0.0664131211796
        y: 0.236907138876
        z: 0.875465213238
      rotation: 
        x: 0.300930519339
        y: 0.918491735674
        z: -0.125306247377
        w: -0.223857317051
---
transforms: 
  - 
    header: 
      seq: 0
      stamp: 
        secs: 0
        nsecs:         0
      frame_id: ''
    child_frame_id: "tag_3"
    transform: 
      translation: 
        x: 0.138801671427
        y: 0.176993790619
        z: 0.846213471224
      rotation: 
        x: 0.301770767512
        y: 0.915265321596
        z: -0.113311817605
        w: -0.241628282595
---
transforms: 
  - 
    header: 
      seq: 0
      stamp: 
        secs: 0
        nsecs:         0
      frame_id: ''
    child_frame_id: "my_bundle"
    transform: 
      translation: 
        x: 0.127699252433
        y: 0.246333136058
        z: 0.842205219582
      rotation: 
        x: 0.303031104362
        y: 0.918934846786
        z: -0.115064416097
        w: -0.224702196917
---
transforms: 
  - 
    header: 
      seq: 0
      stamp: 
        secs: 0
        nsecs:         0
      frame_id: ''
    child_frame_id: "tag_4"
    transform: 
      translation: 
        x: 0.0664797543852
        y: 0.237100597904
        z: 0.876203384157
      rotation: 
        x: 0.300648808608
        y: 0.919171209842
        z: -0.125445162591
        w: -0.221355126581
---
transforms: 
  - 
    header: 
      seq: 0
      stamp: 
        secs: 0
        nsecs:         0
      frame_id: ''
    child_frame_id: "tag_3"
    transform: 
      translation: 
        x: 0.138791717862
        y: 0.177011659814
        z: 0.846265827993
      rotation: 
        x: 0.302217159769
        y: 0.914724668309
        z: -0.114076856552
        w: -0.242755103609
---
transforms: 
  - 
    header: 
      seq: 0
      stamp: 
        secs: 0
        nsecs:         0
      frame_id: ''
    child_frame_id: "tag_1"
    transform: 
      translation: 
        x: 0.190786950082
        y: 0.258114608698
        z: 0.815992597335
      rotation: 
        x: 0.308573714073
        y: 0.918107548236
        z: -0.0994714849807
        w: -0.227960997829
---
transforms: 
  - 
    header: 
      seq: 0
      stamp: 
        secs: 0
        nsecs:         0
      frame_id: ''
    child_frame_id: "tag_0"
    transform: 
      translation: 
        x: 0.127546182709
        y: 0.246071869321
        z: 0.840804096507
      rotation: 
        x: 0.30091750151
        y: 0.915590589365
        z: -0.126913867986
        w: -0.23459624904
---
transforms: 
  - 
    header: 
      seq: 0
      stamp: 
        secs: 0
        nsecs:         0
      frame_id: ''
    child_frame_id: "my_bundle"
    transform: 
      translation: 
        x: 0.127699707811
        y: 0.246327648278
        z: 0.842174741022
      rotation: 
        x: 0.30312949416
        y: 0.918890535479
        z: -0.114743302877
        w: -0.224914801696
---

